{
"type": "FeatureCollection",
"name": "county_names",
"crs": { "type": "name", "properties": { "name": "urn:ogc:def:crs:OGC:1.3:CRS84" } },
"features": [
{ "type": "Feature", "properties": { "ID_2": 1831, "NAME_2": "Albany" }, "geometry": { "type": "Point", "coordinates": [ -73.97296, 42.60025 ] } },
{ "type": "Feature", "properties": { "ID_2": 1832, "NAME_2": "Allegany" }, "geometry": { "type": "Point", "coordinates": [ -78.02747, 42.25729 ] } },
{ "type": "Feature", "properties": { "ID_2": 1833, "NAME_2": "Bronx" }, "geometry": { "type": "Point", "coordinates": [ -73.86874, 40.85394 ] } },
{ "type": "Feature", "properties": { "ID_2": 1834, "NAME_2": "Broome" }, "geometry": { "type": "Point", "coordinates": [ -75.81897, 42.15988 ] } },
{ "type": "Feature", "properties": { "ID_2": 1835, "NAME_2": "Cattaraugus" }, "geometry": { "type": "Point", "coordinates": [ -78.67947, 42.24836 ] } },
{ "type": "Feature", "properties": { "ID_2": 1836, "NAME_2": "Cayuga" }, "geometry": { "type": "Point", "coordinates": [ -76.55367, 42.91594 ] } },
{ "type": "Feature", "properties": { "ID_2": 1837, "NAME_2": "Chautauqua" }, "geometry": { "type": "Point", "coordinates": [ -79.36759, 42.22795 ] } },
{ "type": "Feature", "properties": { "ID_2": 1838, "NAME_2": "Chemung" }, "geometry": { "type": "Point", "coordinates": [ -76.7607, 42.14219 ] } },
{ "type": "Feature", "properties": { "ID_2": 1839, "NAME_2": "Chenango" }, "geometry": { "type": "Point", "coordinates": [ -75.61041, 42.4926 ] } },
{ "type": "Feature", "properties": { "ID_2": 1840, "NAME_2": "Clinton" }, "geometry": { "type": "Point", "coordinates": [ -73.68053, 44.74617 ] } },
{ "type": "Feature", "properties": { "ID_2": 1841, "NAME_2": "Columbia" }, "geometry": { "type": "Point", "coordinates": [ -73.63291, 42.24959 ] } },
{ "type": "Feature", "properties": { "ID_2": 1842, "NAME_2": "Cortland" }, "geometry": { "type": "Point", "coordinates": [ -76.07088, 42.59505 ] } },
{ "type": "Feature", "properties": { "ID_2": 1843, "NAME_2": "Delaware" }, "geometry": { "type": "Point", "coordinates": [ -74.96552, 42.19813 ] } },
{ "type": "Feature", "properties": { "ID_2": 1844, "NAME_2": "Dutchess" }, "geometry": { "type": "Point", "coordinates": [ -73.74369, 41.76513 ] } },
{ "type": "Feature", "properties": { "ID_2": 1845, "NAME_2": "Erie" }, "geometry": { "type": "Point", "coordinates": [ -78.73036, 42.76204 ] } },
{ "type": "Feature", "properties": { "ID_2": 1846, "NAME_2": "Essex" }, "geometry": { "type": "Point", "coordinates": [ -73.77442, 44.11754 ] } },
{ "type": "Feature", "properties": { "ID_2": 1847, "NAME_2": "Franklin" }, "geometry": { "type": "Point", "coordinates": [ -74.30462, 44.59159 ] } },
{ "type": "Feature", "properties": { "ID_2": 1848, "NAME_2": "Fulton" }, "geometry": { "type": "Point", "coordinates": [ -74.42546, 43.11345 ] } },
{ "type": "Feature", "properties": { "ID_2": 1849, "NAME_2": "Genesee" }, "geometry": { "type": "Point", "coordinates": [ -78.1943, 43.00121 ] } },
{ "type": "Feature", "properties": { "ID_2": 1850, "NAME_2": "Greene" }, "geometry": { "type": "Point", "coordinates": [ -74.12178, 42.27738 ] } },
{ "type": "Feature", "properties": { "ID_2": 1851, "NAME_2": "Hamilton" }, "geometry": { "type": "Point", "coordinates": [ -74.49953, 43.66081 ] } },
{ "type": "Feature", "properties": { "ID_2": 1852, "NAME_2": "Herkimer" }, "geometry": { "type": "Point", "coordinates": [ -74.96344, 43.41738 ] } },
{ "type": "Feature", "properties": { "ID_2": 1853, "NAME_2": "Jefferson" }, "geometry": { "type": "Point", "coordinates": [ -75.91293, 44.04133 ] } },
{ "type": "Feature", "properties": { "ID_2": 1854, "NAME_2": "Kings" }, "geometry": { "type": "Point", "coordinates": [ -73.94904, 40.64517 ] } },
{ "type": "Feature", "properties": { "ID_2": 1855, "NAME_2": "Lake Ontario" }, "geometry": { "type": "Point", "coordinates": [ -77.39676, 43.57835 ] } },
{ "type": "Feature", "properties": { "ID_2": 1856, "NAME_2": "Lewis" }, "geometry": { "type": "Point", "coordinates": [ -75.44978, 43.78539 ] } },
{ "type": "Feature", "properties": { "ID_2": 1857, "NAME_2": "Livingston" }, "geometry": { "type": "Point", "coordinates": [ -77.77475, 42.72783 ] } },
{ "type": "Feature", "properties": { "ID_2": 1858, "NAME_2": "Madison" }, "geometry": { "type": "Point", "coordinates": [ -75.66918, 42.91236 ] } },
{ "type": "Feature", "properties": { "ID_2": 1859, "NAME_2": "Monroe" }, "geometry": { "type": "Point", "coordinates": [ -77.69731, 43.14631 ] } },
{ "type": "Feature", "properties": { "ID_2": 1860, "NAME_2": "Montgomery" }, "geometry": { "type": "Point", "coordinates": [ -74.44034, 42.90097 ] } },
{ "type": "Feature", "properties": { "ID_2": 1861, "NAME_2": "Nassau" }, "geometry": { "type": "Point", "coordinates": [ -73.58826, 40.73978 ] } },
{ "type": "Feature", "properties": { "ID_2": 1862, "NAME_2": "New York" }, "geometry": { "type": "Point", "coordinates": [ -73.96903, 40.78264 ] } },
{ "type": "Feature", "properties": { "ID_2": 1863, "NAME_2": "Niagara" }, "geometry": { "type": "Point", "coordinates": [ -78.74225, 43.20191 ] } },
{ "type": "Feature", "properties": { "ID_2": 1864, "NAME_2": "Oneida" }, "geometry": { "type": "Point", "coordinates": [ -75.43624, 43.24169 ] } },
{ "type": "Feature", "properties": { "ID_2": 1865, "NAME_2": "Onondaga" }, "geometry": { "type": "Point", "coordinates": [ -76.19451, 43.007 ] } },
{ "type": "Feature", "properties": { "ID_2": 1866, "NAME_2": "Ontario" }, "geometry": { "type": "Point", "coordinates": [ -77.29976, 42.8519 ] } },
{ "type": "Feature", "properties": { "ID_2": 1867, "NAME_2": "Orange" }, "geometry": { "type": "Point", "coordinates": [ -74.30577, 41.40195 ] } },
{ "type": "Feature", "properties": { "ID_2": 1868, "NAME_2": "Orleans" }, "geometry": { "type": "Point", "coordinates": [ -78.23222, 43.25285 ] } },
{ "type": "Feature", "properties": { "ID_2": 1869, "NAME_2": "Oswego" }, "geometry": { "type": "Point", "coordinates": [ -76.14206, 43.4269 ] } },
{ "type": "Feature", "properties": { "ID_2": 1870, "NAME_2": "Otsego" }, "geometry": { "type": "Point", "coordinates": [ -75.03147, 42.63269 ] } },
{ "type": "Feature", "properties": { "ID_2": 1871, "NAME_2": "Putnam" }, "geometry": { "type": "Point", "coordinates": [ -73.74977, 41.42605 ] } },
{ "type": "Feature", "properties": { "ID_2": 1872, "NAME_2": "Queens" }, "geometry": { "type": "Point", "coordinates": [ -73.82043, 40.70727 ] } },
{ "type": "Feature", "properties": { "ID_2": 1873, "NAME_2": "Rensselaer" }, "geometry": { "type": "Point", "coordinates": [ -73.50993, 42.71186 ] } },
{ "type": "Feature", "properties": { "ID_2": 1874, "NAME_2": "Richmond" }, "geometry": { "type": "Point", "coordinates": [ -74.15345, 40.5808 ] } },
{ "type": "Feature", "properties": { "ID_2": 1875, "NAME_2": "Rockland" }, "geometry": { "type": "Point", "coordinates": [ -74.02336, 41.15224 ] } },
{ "type": "Feature", "properties": { "ID_2": 1876, "NAME_2": "Saint Lawrence" }, "geometry": { "type": "Point", "coordinates": [ -75.06382, 44.49002 ] } },
{ "type": "Feature", "properties": { "ID_2": 1877, "NAME_2": "Saratoga" }, "geometry": { "type": "Point", "coordinates": [ -73.86657, 43.10758 ] } },
{ "type": "Feature", "properties": { "ID_2": 1878, "NAME_2": "Schenectady" }, "geometry": { "type": "Point", "coordinates": [ -74.05845, 42.81808 ] } },
{ "type": "Feature", "properties": { "ID_2": 1879, "NAME_2": "Schoharie" }, "geometry": { "type": "Point", "coordinates": [ -74.4425, 42.5874 ] } },
{ "type": "Feature", "properties": { "ID_2": 1880, "NAME_2": "Schuyler" }, "geometry": { "type": "Point", "coordinates": [ -76.87505, 42.39449 ] } },
{ "type": "Feature", "properties": { "ID_2": 1881, "NAME_2": "Seneca" }, "geometry": { "type": "Point", "coordinates": [ -76.82224, 42.78062 ] } },
{ "type": "Feature", "properties": { "ID_2": 1882, "NAME_2": "Steuben" }, "geometry": { "type": "Point", "coordinates": [ -77.38401, 42.26797 ] } },
{ "type": "Feature", "properties": { "ID_2": 1883, "NAME_2": "Suffolk" }, "geometry": { "type": "Point", "coordinates": [ -72.85904, 40.8766 ] } },
{ "type": "Feature", "properties": { "ID_2": 1884, "NAME_2": "Sullivan" }, "geometry": { "type": "Point", "coordinates": [ -74.76877, 41.71618 ] } },
{ "type": "Feature", "properties": { "ID_2": 1885, "NAME_2": "Tioga" }, "geometry": { "type": "Point", "coordinates": [ -76.30703, 42.17026 ] } },
{ "type": "Feature", "properties": { "ID_2": 1886, "NAME_2": "Tompkins" }, "geometry": { "type": "Point", "coordinates": [ -76.47396, 42.45159 ] } },
{ "type": "Feature", "properties": { "ID_2": 1887, "NAME_2": "Ulster" }, "geometry": { "type": "Point", "coordinates": [ -74.25867, 41.88824 ] } },
{ "type": "Feature", "properties": { "ID_2": 1888, "NAME_2": "Warren" }, "geometry": { "type": "Point", "coordinates": [ -73.85247, 43.56134 ] } },
{ "type": "Feature", "properties": { "ID_2": 1889, "NAME_2": "Washington" }, "geometry": { "type": "Point", "coordinates": [ -73.43542, 43.3152 ] } },
{ "type": "Feature", "properties": { "ID_2": 1890, "NAME_2": "Wayne" }, "geometry": { "type": "Point", "coordinates": [ -77.0305, 43.15568 ] } },
{ "type": "Feature", "properties": { "ID_2": 1891, "NAME_2": "Westchester" }, "geometry": { "type": "Point", "coordinates": [ -73.75702, 41.16213 ] } },
{ "type": "Feature", "properties": { "ID_2": 1892, "NAME_2": "Wyoming" }, "geometry": { "type": "Point", "coordinates": [ -78.22305, 42.70232 ] } },
{ "type": "Feature", "properties": { "ID_2": 1893, "NAME_2": "Yates" }, "geometry": { "type": "Point", "coordinates": [ -77.10431, 42.63351 ] } }
]
}
